[{"fsq_id":"4de7b1651838131a855b3e64","categories":[{"id":13002,"name":"Bakery","short_name":"Bakery","plural_name":"Bakeries","icon":{"prefix":"https://ss3.4sqi.net/img/categories_v2/food/bakery_","suffix":".png"}}],"chains":[{"id":"2f2d5840-9c63-0132-6632-3c15c2dde6c8","name":"Greggs"}],"closed_bucket":"VeryLikelyOpen","distance":11,"geocodes":{"main":{"latitude":54.96852,"longitude":-1.617284},"roof":{"latitude":54.96852,"longitude":-1.617284}},"link":"/v3/places/4de7b1651838131a855b3e64","location":{"address":"Newcastle Central Station","admin_region":"England","country":"GB","cross_street":"Neville St","formatted_address":"Newcastle Central Station (Neville St), Newcastle upon Tyne, NE1 5DL","locality":"Newcastle upon Tyne","post_town":"Newcastle Upon Tyne","postcode":"NE1 5DL","region":"Newcastle upon Tyne"},"name":"Greggs","related_places":{"parent":{"fsq_id":"4b549ea0f964a52019c327e3","categories":[{"id":19047,"name":"Rail Station","short_name":"Rail Station","plural_name":"Rail Stations","icon":{"prefix":"https://ss3.4sqi.net/img/categories_v2/travel/trainstation_","suffix":".png"}}],"name":"Newcastle Central Railway Station"}},"timezone":"Europe/London"},{"fsq_id":"4e72ed621495dffb8eafdcf5","categories":[{"id":13034,"name":"Café","short_name":"Café","plural_name":"Cafés","icon":{"prefix":"https://ss3.4sqi.net/img/categories_v2/food/cafe_","suffix":".png"}},{"id":13035,"name":"Coffee Shop","short_name":"Coffee Shop","plural_name":"Coffee Shops","icon":{"prefix":"https://ss3.4sqi.net/img/categories_v2/food/coffeeshop_","suffix":".png"}},{"id":13145,"name":"Fast Food Restaurant","short_name":"Fast Food","plural_name":"Fast Food Restaurants","icon":{"prefix":"https://ss3.4sqi.net/img/categories_v2/food/fastfood_","suffix":".png"}}],"chains":[],"closed_bucket":"VeryLikelyOpen","distance":6,"geocodes":{"main":{"latitude":54.968416,"longitude":-1.617252},"roof":{"latitude":54.968416,"longitude":-1.617252}},"link":"/v3/places/4e72ed621495dffb8eafdcf5","location":{"address":"Newcastle Central Station","admin_region":"England","country":"GB","cross_street":"Neville St","formatted_address":"Newcastle Central Station (Neville St), Newcastle upon Tyne, NE1 5DL","locality":"Newcastle upon Tyne","post_town":"Newcastle Upon Tyne","postcode":"NE1 5DL"},"name":"Pumpkin Cafe Newcastle","related_places":{"parent":{"fsq_id":"4b549ea0f964a52019c327e3","categories":[{"id":19047,"name":"Rail Station","short_name":"Rail Station","plural_name":"Rail Stations","icon":{"prefix":"https://ss3.4sqi.net/img/categories_v2/travel/trainstation_","suffix":".png"}}],"name":"Newcastle Central Railway Station"}},"timezone":"Europe/London"},{"fsq_id":"4e5ca88788775cde7b46a00a","categories":[{"id":13035,"name":"Coffee Shop","short_name":"Coffee Shop","plural_name":"Coffee Shops","icon":{"prefix":"https://ss3.4sqi.net/img/categories_v2/food/coffeeshop_","suffix":".png"}}],"chains":[{"id":"2fc8d230-9c63-0132-6632-3c15c2dde6c8","name":"Costa Coffee"}],"closed_bucket":"VeryLikelyOpen","distance":7,"geocodes":{"main":{"latitude":54.96832,"longitude":-1.617018},"roof":{"latitude":54.96832,"longitude":-1.617018}},"link":"/v3/places/4e5ca88788775cde7b46a00a","location":{"address":"Unit 10, Newcastle Central Station","address_extended":"Unit 10","admin_region":"England","country":"GB","formatted_address":"Unit 10, Newcastle Central Station, Newcastle upon Tyne, NE1 5DL","locality":"Newcastle upon Tyne","post_town":"Newcastle Upon Tyne","postcode":"NE1 5DL","region":"Newcastle upon Tyne"},"name":"Costa Coffee","related_places":{"parent":{"fsq_id":"4b549ea0f964a52019c327e3","categories":[{"id":19047,"name":"Rail Station","short_name":"Rail Station","plural_name":"Rail Stations","icon":{"prefix":"https://ss3.4sqi.net/img/categories_v2/travel/trainstation_","suffix":".png"}}],"name":"Newcastle Central Railway Station"}},"timezone":"Europe/London"},{"fsq_id":"4c48230b1ddec928a1739f32","categories":[{"id":13031,"name":"Burger Joint","short_name":"Burgers","plural_name":"Burger Joints","icon":{"prefix":"https://ss3.4sqi.net/img/categories_v2/food/burger_","suffix":".png"}},{"id":13145,"name":"Fast Food Restaurant","short_name":"Fast Food","plural_name":"Fast Food Restaurants","icon":{"prefix":"https://ss3.4sqi.net/img/categories_v2/food/fastfood_","suffix":".png"}}],"chains":[{"id":"ab4a9b10-d68a-012e-5619-003048cad9da","name":"Burger King"}],"closed_bucket":"VeryLikelyOpen","distance":11,"geocodes":{"main":{"latitude":54.968374,"longitude":-1.616983},"roof":{"latitude":54.968374,"longitude":-1.616983}},"link":"/v3/places/4c48230b1ddec928a1739f32","location":{"address":"Central Station, Neville St","admin_region":"England","country":"GB","cross_street":"Neville St","formatted_address":"Central Station, Neville St (Neville St), Newcastle upon Tyne, NE1 5DL","locality":"Newcastle upon Tyne","post_town":"Newcastle Upon Tyne","postcode":"NE1 5DL","region":"Newcastle upon Tyne"},"name":"Burger King","related_places":{"parent":{"fsq_id":"4b549ea0f964a52019c327e3","categories":[{"id":19047,"name":"Rail Station","short_name":"Rail Station","plural_name":"Rail Stations","icon":{"prefix":"https://ss3.4sqi.net/img/categories_v2/travel/trainstation_","suffix":".png"}}],"name":"Newcastle Central Railway Station"}},"timezone":"Europe/London"},{"fsq_id":"4e85003af790445290663367","categories":[{"id":13003,"name":"Bar","short_name":"Bar","plural_name":"Bars","icon":{"prefix":"https://ss3.4sqi.net/img/categories_v2/nightlife/pub_","suffix":".png"}}],"chains":[],"closed_bucket":"VeryLikelyOpen","distance":16,"geocodes":{"main":{"latitude":54.968466,"longitude":-1.617319},"roof":{"latitude":54.968466,"longitude":-1.617319}},"link":"/v3/places/4e85003af790445290663367","location":{"admin_region":"England","country":"GB","cross_street":"","formatted_address":"Newcastle upon Tyne","locality":"Newcastle upon Tyne","post_town":"Newcastle Upon Tyne","region":"Newcastle upon Tyne"},"name":"Tup Tup","related_places":{},"timezone":"Europe/London"},{"fsq_id":"5128963be4b073803a1027a5","categories":[{"id":10053,"name":"Ticket Seller","short_name":"Ticket Seller","plural_name":"Ticket Sellers","icon":{"prefix":"https://ss3.4sqi.net/img/categories_v2/arts_entertainment/default_","suffix":".png"}}],"chains":[],"closed_bucket":"VeryLikelyOpen","distance":35,"geocodes":{"main":{"latitude":54.968412,"longitude":-1.617354},"roof":{"latitude":54.968412,"longitude":-1.617354}},"link":"/v3/places/5128963be4b073803a1027a5","location":{"address":"Newcastle Central Station","admin_region":"England","country":"GB","cross_street":"","formatted_address":"Newcastle Central Station, Newcastle upon Tyne","locality":"Newcastle upon Tyne","post_town":"Newcastle upon Tyne"},"name":"Ticket Office","related_places":{"parent":{"fsq_id":"4b549ea0f964a52019c327e3","categories":[{"id":19047,"name":"Rail Station","short_name":"Rail Station","plural_name":"Rail Stations","icon":{"prefix":"https://ss3.4sqi.net/img/categories_v2/travel/trainstation_","suffix":".png"}}],"name":"Newcastle Central Railway Station"}},"timezone":"Europe/London"},{"fsq_id":"9b072aababdc4319df8f60dc","categories":[{"id":10039,"name":"Music Venue","short_name":"Music Venue","plural_name":"Music Venues","icon":{"prefix":"https://ss3.4sqi.net/img/categories_v2/arts_entertainment/musicvenue_","suffix":".png"}}],"chains":[],"closed_bucket":"Unsure","distance":6,"geocodes":{"main":{"latitude":54.968801,"longitude":-1.610282},"roof":{"latitude":54.968801,"longitude":-1.610282}},"link":"/v3/places/9b072aababdc4319df8f60dc","location":{"address":"The Bridge Hotel, High Bridge","admin_region":"England","country":"GB","formatted_address":"The Bridge Hotel, High Bridge, Newcastle upon Tyne, NE1 1RQ","locality":"Newcastle upon Tyne","post_town":"Newcastle Upon Tyne","postcode":"NE1 1RQ"},"name":"Tyneside Irish Festival","related_places":{},"timezone":"Europe/London"},{"fsq_id":"52d98c44498e30bf93ada7a4","categories":[{"id":13055,"name":"Fried Chicken Joint","short_name":"Fried Chicken","plural_name":"Fried Chicken Joints","icon":{"prefix":"https://ss3.4sqi.net/img/categories_v2/food/friedchicken_","suffix":".png"}},{"id":13145,"name":"Fast Food Restaurant","short_name":"Fast Food","plural_name":"Fast Food Restaurants","icon":{"prefix":"https://ss3.4sqi.net/img/categories_v2/food/fastfood_","suffix":".png"}}],"chains":[],"closed_bucket":"VeryLikelyOpen","distance":3,"geocodes":{"main":{"latitude":54.969668,"longitude":-1.613576},"roof":{"latitude":54.969668,"longitude":-1.613576}},"link":"/v3/places/52d98c44498e30bf93ada7a4","location":{"address":"25 Collingwood St","admin_region":"England","country":"GB","cross_street":"","formatted_address":"25 Collingwood St, Newcastle upon Tyne, NE1 1JE","locality":"Newcastle upon Tyne","post_town":"Newcastle Upon Tyne","postcode":"NE1 1JE","region":"Newcastle upon Tyne"},"name":"Coop Chicken House","related_places":{},"timezone":"Europe/London"},{"fsq_id":"4b69e6b0f964a5200ebb2be3","categories":[{"id":13009,"name":"Cocktail Bar","short_name":"Cocktail","plural_name":"Cocktail Bars","icon":{"prefix":"https://ss3.4sqi.net/img/categories_v2/nightlife/cocktails_","suffix":".png"}},{"id":13065,"name":"Restaurant","short_name":"Restaurant","plural_name":"Restaurants","icon":{"prefix":"https://ss3.4sqi.net/img/categories_v2/food/default_","suffix":".png"}}],"chains":[],"closed_bucket":"VeryLikelyOpen","distance":13,"geocodes":{"main":{"latitude":54.96981,"longitude":-1.613978},"roof":{"latitude":54.96981,"longitude":-1.613978}},"link":"/v3/places/4b69e6b0f964a5200ebb2be3","location":{"address":"Collingwood St","admin_region":"England","country":"GB","formatted_address":"Collingwood St, Newcastle upon Tyne, NE1 1JF","locality":"Newcastle upon Tyne","post_town":"Newcastle Upon Tyne","postcode":"NE1 1JF","region":"Newcastle upon Tyne"},"name":"Revolution Bar","related_places":{},"timezone":"Europe/London"},{"fsq_id":"4bf27c931cd9d13a02afed76","categories":[{"id":13003,"name":"Bar","short_name":"Bar","plural_name":"Bars","icon":{"prefix":"https://ss3.4sqi.net/img/categories_v2/nightlife/pub_","suffix":".png"}},{"id":13034,"name":"Café","short_name":"Café","plural_name":"Cafés","icon":{"prefix":"https://ss3.4sqi.net/img/categories_v2/food/cafe_","suffix":".png"}},{"id":13334,"name":"Sandwich Spot","short_name":"Sandwich Spot","plural_name":"Sandwich Spots","icon":{"prefix":"https://ss3.4sqi.net/img/categories_v2/food/deli_","suffix":".png"}}],"chains":[],"closed_bucket":"Unsure","distance":4,"geocodes":{"main":{"latitude":54.969668,"longitude":-1.613576},"roof":{"latitude":54.969668,"longitude":-1.613576}},"link":"/v3/places/4bf27c931cd9d13a02afed76","location":{"address":"27 Collingwood St","admin_region":"England","country":"GB","formatted_address":"27 Collingwood St, Newcastle upon Tyne, NE1 1JE","locality":"Newcastle upon Tyne","post_town":"Newcastle Upon Tyne","postcode":"NE1 1JE"},"name":"The Hippo House","related_places":{},"timezone":"Europe/London"},{"fsq_id":"57f39b87498ed2bc0137daca","categories":[{"id":13039,"name":"Deli","short_name":"Deli","plural_name":"Delis","icon":{"prefix":"https://ss3.4sqi.net/img/categories_v2/food/deli_","suffix":".png"}}],"chains":[],"closed_bucket":"VeryLikelyOpen","distance":8,"geocodes":{"main":{"latitude":54.96993,"longitude":-1.613604},"roof":{"latitude":54.96993,"longitude":-1.613604}},"link":"/v3/places/57f39b87498ed2bc0137daca","location":{"admin_region":"England","country":"GB","cross_street":"","formatted_address":"Newcastle upon Tyne, NE1 1JF","locality":"Newcastle upon Tyne","post_town":"Newcastle Upon Tyne","postcode":"NE1 1JF","region":"Newcastle upon Tyne"},"name":"Camera Shop","related_places":{},"timezone":"Europe/London"},{"fsq_id":"584075a6076be157aa756dbc","categories":[{"id":13025,"name":"Wine Bar","short_name":"Wine Bar","plural_name":"Wine Bars","icon":{"prefix":"https://ss3.4sqi.net/img/categories_v2/food/winery_","suffix":".png"}},{"id":13345,"name":"Spanish Restaurant","short_name":"Spanish","plural_name":"Spanish Restaurants","icon":{"prefix":"https://ss3.4sqi.net/img/categories_v2/food/spanish_","suffix":".png"}}],"chains":[],"closed_bucket":"LikelyOpen","distance":14,"geocodes":{"main":{"latitude":54.969668,"longitude":-1.613576},"roof":{"latitude":54.969668,"longitude":-1.613576}},"link":"/v3/places/584075a6076be157aa756dbc","location":{"address":"29 Collingwood St","admin_region":"England","country":"GB","cross_street":"","formatted_address":"29 Collingwood St, Newcastle upon Tyne, NE1 1JE","locality":"Newcastle upon Tyne","post_town":"Newcastle Upon Tyne","postcode":"NE1 1JE"},"name":"The Continental","related_places":{},"timezone":"Europe/London"},{"fsq_id":"4cc3796906c2548175e69047","categories":[{"id":10032,"name":"Night Club","short_name":"Night Club","plural_name":"Night Clubs","icon":{"prefix":"https://ss3.4sqi.net/img/categories_v2/nightlife/nightclub_","suffix":".png"}}],"chains":[],"closed_bucket":"VeryLikelyOpen","distance":33,"geocodes":{"main":{"latitude":54.967907,"longitude":-1.608983},"roof":{"latitude":54.967907,"longitude":-1.608983}},"link":"/v3/places/4cc3796906c2548175e69047","location":{"admin_region":"England","country":"GB","cross_street":"","formatted_address":"Newcastle Upon Tyne","locality":"Newcastle Upon Tyne","post_town":"Newcastle Upon Tyne"},"name":"Cooperage","related_places":{},"timezone":"Europe/London"},{"fsq_id":"54d2ab04498e23e8c6c46f74","categories":[{"id":10032,"name":"Night Club","short_name":"Night Club","plural_name":"Night Clubs","icon":{"prefix":"https://ss3.4sqi.net/img/categories_v2/nightlife/nightclub_","suffix":".png"}}],"chains":[],"closed_bucket":"VeryLikelyOpen","distance":39,"geocodes":{"main":{"latitude":54.967907,"longitude":-1.608983},"roof":{"latitude":54.967907,"longitude":-1.608983}},"link":"/v3/places/54d2ab04498e23e8c6c46f74","location":{"address":"Melbourne St","admin_region":"England","country":"GB","cross_street":"","formatted_address":"Melbourne St, Newcastle upon Tyne","locality":"Newcastle upon Tyne","post_town":"Newcastle upon Tyne"},"name":"Riverside Nightclub","related_places":{},"timezone":"Europe/London"},{"fsq_id":"38f8420c324a461a89e5824b","categories":[{"id":10032,"name":"Night Club","short_name":"Night Club","plural_name":"Night Clubs","icon":{"prefix":"https://ss3.4sqi.net/img/categories_v2/nightlife/nightclub_","suffix":".png"}}],"chains":[],"closed_bucket":"LikelyOpen","distance":22,"geocodes":{"main":{"latitude":54.967907,"longitude":-1.608983},"roof":{"latitude":54.967907,"longitude":-1.608983}},"link":"/v3/places/38f8420c324a461a89e5824b","location":{"admin_region":"England","country":"GB","formatted_address":"Newcastle upon Tyne","locality":"Newcastle upon Tyne","post_town":"Newcastle Upon Tyne"},"name":"Infaktion","related_places":{}},{"fsq_id":"56015f6d498e1b505ee8846a","categories":[{"id":13031,"name":"Burger Joint","short_name":"Burgers","plural_name":"Burger Joints","icon":{"prefix":"https://ss3.4sqi.net/img/categories_v2/food/burger_","suffix":".png"}},{"id":13068,"name":"American Restaurant","short_name":"American","plural_name":"American Restaurants","icon":{"prefix":"https://ss3.4sqi.net/img/categories_v2/food/default_","suffix":".png"}}],"chains":[],"closed_bucket":"LikelyOpen","distance":20,"geocodes":{"main":{"latitude":54.973546,"longitude":-1.612649},"roof":{"latitude":54.973546,"longitude":-1.612649}},"link":"/v3/places/56015f6d498e1b505ee8846a","location":{"address":"104-108 Grey St","admin_region":"England","country":"GB","cross_street":"","formatted_address":"104-108 Grey St, Newcastle upon Tyne, NE1 6JG","locality":"Newcastle upon Tyne","post_town":"Newcastle Upon Tyne","postcode":"NE1 6JG","region":"Newcastle upon Tyne"},"name":"Byron Grey Street","related_places":{},"timezone":"Europe/London"},{"fsq_id":"5dd167e0e8feee00084235da","categories":[{"id":13003,"name":"Bar","short_name":"Bar","plural_name":"Bars","icon":{"prefix":"https://ss3.4sqi.net/img/categories_v2/nightlife/pub_","suffix":".png"}}],"chains":[],"closed_bucket":"VeryLikelyOpen","distance":14,"geocodes":{"main":{"latitude":54.973422,"longitude":-1.613125},"roof":{"latitude":54.973422,"longitude":-1.613125}},"link":"/v3/places/5dd167e0e8feee00084235da","location":{"admin_region":"England","country":"GB","cross_street":"","formatted_address":"Newcastle upon Tyne, NE1 6EG","locality":"Newcastle upon Tyne","post_town":"Newcastle Upon Tyne","postcode":"NE1 6EG"},"name":"Apres Ski Bar","related_places":{"parent":{"fsq_id":"4b54a097f964a52088c327e3","categories":[{"id":16026,"name":"Monument","short_name":"Monument","plural_name":"Monuments","icon":{"prefix":"https://ss3.4sqi.net/img/categories_v2/building/government_monument_","suffix":".png"}}],"name":"Grey's Monument"}},"timezone":"Europe/London"},{"fsq_id":"5c113ece67af3a002c4ced97","categories":[{"id":13032,"name":"Cafe, Coffee, and Tea House","short_name":"Cafe, Coffee, and Tea House","plural_name":"Cafes, Coffee, and Tea Houses","icon":{"prefix":"https://ss3.4sqi.net/img/categories_v2/food/coffeeshop_","suffix":".png"}},{"id":13039,"name":"Deli","short_name":"Deli","plural_name":"Delis","icon":{"prefix":"https://ss3.4sqi.net/img/categories_v2/food/deli_","suffix":".png"}}],"chains":[],"closed_bucket":"VeryLikelyOpen","distance":24,"geocodes":{"main":{"latitude":54.973426,"longitude":-1.613024},"roof":{"latitude":54.973426,"longitude":-1.613024}},"link":"/v3/places/5c113ece67af3a002c4ced97","location":{"address":"97-99 Grey St","admin_region":"England","country":"GB","cross_street":"","formatted_address":"97-99 Grey St, Newcastle upon Tyne, NE1 6EG","locality":"Newcastle upon Tyne","post_town":"Newcastle Upon Tyne","postcode":"NE1 6EG","region":"Newcastle upon Tyne"},"name":"The Naked Deli","related_places":{},"timezone":"Europe/London"},{"fsq_id":"0fedb8c21ad08defa8e3eaa9","categories":[{"id":13145,"name":"Fast Food Restaurant","short_name":"Fast Food","plural_name":"Fast Food Restaurants","icon":{"prefix":"https://ss3.4sqi.net/img/categories_v2/food/fastfood_","suffix":".png"}},{"id":17057,"name":"Food and Beverage Retail","short_name":"Food & Beverage","plural_name":"Food and Beverage Retail","icon":{"prefix":"https://ss3.4sqi.net/img/categories_v2/shops/foodanddrink_","suffix":".png"}}],"chains":[],"closed_bucket":"VeryLikelyOpen","distance":11,"geocodes":{"drop_off":{"latitude":54.973564,"longitude":-1.61294},"main":{"latitude":54.973476,"longitude":-1.61309},"roof":{"latitude":54.973476,"longitude":-1.61309}},"link":"/v3/places/0fedb8c21ad08defa8e3eaa9","location":{"address":"150 Grainger St","admin_region":"England","country":"GB","formatted_address":"150 Grainger St, Newcastle upon Tyne","locality":"Newcastle upon Tyne","post_town":"Newcastle Upon Tyne"},"name":"Island Poké","related_places":{}},{"fsq_id":"4fa22f54e4b0bd954eb95abe","categories":[{"id":13054,"name":"Food Truck","short_name":"Food Truck","plural_name":"Food Trucks","icon":{"prefix":"https://ss3.4sqi.net/img/categories_v2/food/streetfood_","suffix":".png"}}],"chains":[],"closed_bucket":"VeryLikelyOpen","distance":4,"geocodes":{"main":{"latitude":54.97535,"longitude":-1.612273},"roof":{"latitude":54.97535,"longitude":-1.612273}},"link":"/v3/places/4fa22f54e4b0bd954eb95abe","location":{"country":"GB","cross_street":"","formatted_address":""},"name":"Food Hall","related_places":{},"timezone":"Europe/London"},{"fsq_id":"63600b56777b5077d7b86a66","categories":[{"id":13099,"name":"Chinese Restaurant","short_name":"Chinese","plural_name":"Chinese Restaurants","icon":{"prefix":"https://ss3.4sqi.net/img/categories_v2/food/asian_","suffix":".png"}},{"id":13263,"name":"Japanese Restaurant","short_name":"Japanese","plural_name":"Japanese Restaurants","icon":{"prefix":"https://ss3.4sqi.net/img/categories_v2/food/japanese_","suffix":".png"}}],"chains":[],"closed_bucket":"Unsure","distance":29,"geocodes":{"drop_off":{"latitude":54.974144,"longitude":-1.617693},"main":{"latitude":54.974028,"longitude":-1.617676},"roof":{"latitude":54.974028,"longitude":-1.617676}},"link":"/v3/places/63600b56777b5077d7b86a66","location":{"admin_region":"England","country":"GB","cross_street":"Percy Street","formatted_address":"Percy Street, Newcastle upon Tyne, NE1 4SG","locality":"Newcastle upon Tyne","post_town":"Newcastle Upon Tyne","postcode":"NE1 4SG","region":"Newcastle upon Tyne"},"name":"Zuju","related_places":{},"timezone":"Europe/London"},{"fsq_id":"586418137220e60d834c1311","categories":[{"id":13099,"name":"Chinese Restaurant","short_name":"Chinese","plural_name":"Chinese Restaurants","icon":{"prefix":"https://ss3.4sqi.net/img/categories_v2/food/asian_","suffix":".png"}}],"chains":[],"closed_bucket":"Unsure","distance":32,"geocodes":{"main":{"latitude":54.974028,"longitude":-1.617676},"roof":{"latitude":54.974028,"longitude":-1.617676}},"link":"/v3/places/586418137220e60d834c1311","location":{"address":"7-9 Gallowgate","admin_region":"England","country":"GB","cross_street":"","formatted_address":"7-9 Gallowgate, Newcastle upon Tyne, NE1 4SG","locality":"Newcastle upon Tyne","post_town":"Newcastle Upon Tyne","postcode":"NE1 4SG"},"name":"La Yuan","related_places":{},"timezone":"Europe/London"},{"fsq_id":"f3a75297d9a77202e10464a0","categories":[{"id":10023,"name":"Mini Golf Course","short_name":"Mini Golf","plural_name":"Mini Golf Courses","icon":{"prefix":"https://ss3.4sqi.net/img/categories_v2/parks_outdoors/golfcourse_","suffix":".png"}}],"chains":[],"closed_bucket":"LikelyOpen","distance":21,"geocodes":{"main":{"latitude":54.973998,"longitude":-1.617102},"roof":{"latitude":54.973998,"longitude":-1.617102}},"link":"/v3/places/f3a75297d9a77202e10464a0","location":{"admin_region":"England","country":"GB","formatted_address":"Newcastle upon Tyne","locality":"Newcastle upon Tyne","post_town":"Newcastle Upon Tyne"},"name":"Mr Mulligans Newcastle","related_places":{}},{"fsq_id":"4ec82b1e29c22cc60d39ddd4","categories":[{"id":13009,"name":"Cocktail Bar","short_name":"Cocktail","plural_name":"Cocktail Bars","icon":{"prefix":"https://ss3.4sqi.net/img/categories_v2/nightlife/cocktails_","suffix":".png"}},{"id":13065,"name":"Restaurant","short_name":"Restaurant","plural_name":"Restaurants","icon":{"prefix":"https://ss3.4sqi.net/img/categories_v2/food/default_","suffix":".png"}}],"chains":[],"closed_bucket":"LikelyOpen","distance":7,"geocodes":{"main":{"latitude":54.969353,"longitude":-1.614867},"roof":{"latitude":54.969353,"longitude":-1.614867}},"link":"/v3/places/4ec82b1e29c22cc60d39ddd4","location":{"address":"Neville St","admin_region":"England","country":"GB","cross_street":"","formatted_address":"Neville St, Newcastle upon Tyne, NE1 5DH","locality":"Newcastle upon Tyne","post_town":"Newcastle Upon Tyne","postcode":"NE1 5DH","region":"Newcastle upon Tyne"},"name":"Jalou","related_places":{"parent":{"fsq_id":"4bbc9e2207809521ad7cd991","categories":[{"id":19014,"name":"Hotel","short_name":"Hotel","plural_name":"Hotels","icon":{"prefix":"https://ss3.4sqi.net/img/categories_v2/travel/hotel_","suffix":".png"}}],"name":"Royal Station Hotel"}},"timezone":"Europe/London"},{"fsq_id":"4fcdfd9ce4b0844bff682ce6","categories":[{"id":16026,"name":"Monument","short_name":"Monument","plural_name":"Monuments","icon":{"prefix":"https://ss3.4sqi.net/img/categories_v2/building/government_monument_","suffix":".png"}}],"chains":[],"closed_bucket":"VeryLikelyOpen","distance":18,"geocodes":{"main":{"latitude":54.969358,"longitude":-1.614765},"roof":{"latitude":54.969358,"longitude":-1.614765}},"link":"/v3/places/4fcdfd9ce4b0844bff682ce6","location":{"address":"Westgate Rd","admin_region":"England","country":"GB","cross_street":"","formatted_address":"Westgate Rd, Newcastle upon Tyne, NE1 1TT","locality":"Newcastle upon Tyne","post_town":"Newcastle Upon Tyne","postcode":"NE1 1TT"},"name":"Stephenson Monument","related_places":{},"timezone":"Europe/London"},{"fsq_id":"44bfecdd0bcc419deec6c4d0","categories":[{"id":13065,"name":"Restaurant","short_name":"Restaurant","plural_name":"Restaurants","icon":{"prefix":"https://ss3.4sqi.net/img/categories_v2/food/default_","suffix":".png"}}],"chains":[],"closed_bucket":"VeryLikelyOpen","distance":13,"geocodes":{"main":{"latitude":54.969358,"longitude":-1.614765},"roof":{"latitude":54.969358,"longitude":-1.614765}},"link":"/v3/places/44bfecdd0bcc419deec6c4d0","location":{"address":"39-47 Westgate Rd","admin_region":"England","country":"GB","formatted_address":"39-47 Westgate Rd, Newcastle upon Tyne, NE1 5SG","locality":"Newcastle upon Tyne","post_town":"Newcastle Upon Tyne","postcode":"NE1 5SG"},"name":"Waiting Rooms Newcastle Upon Tyne","related_places":{}},{"fsq_id":"4b92068af964a520e0e333e3","categories":[{"id":10037,"name":"Concert Hall","short_name":"Concert Hall","plural_name":"Concert Halls","icon":{"prefix":"https://ss3.4sqi.net/img/categories_v2/arts_entertainment/musicvenue_","suffix":".png"}},{"id":10039,"name":"Music Venue","short_name":"Music Venue","plural_name":"Music Venues","icon":{"prefix":"https://ss3.4sqi.net/img/categories_v2/arts_entertainment/musicvenue_","suffix":".png"}},{"id":13065,"name":"Restaurant","short_name":"Restaurant","plural_name":"Restaurants","icon":{"prefix":"https://ss3.4sqi.net/img/categories_v2/food/default_","suffix":".png"}}],"chains":[],"closed_bucket":"VeryLikelyOpen","distance":20,"geocodes":{"main":{"latitude":54.96771,"longitude":-1.602093},"roof":{"latitude":54.96771,"longitude":-1.602093}},"link":"/v3/places/4b92068af964a520e0e333e3","location":{"address":"St Mary's Square","admin_region":"England","country":"GB","cross_street":"","formatted_address":"St Mary's Square, Gateshead, NE8 2JR","locality":"Gateshead","post_town":"Gateshead","postcode":"NE8 2JR"},"name":"Sage Gateshead","related_places":{},"timezone":"Europe/London"},{"fsq_id":"8fc741101597471eb6fa6e56","categories":[{"id":13065,"name":"Restaurant","short_name":"Restaurant","plural_name":"Restaurants","icon":{"prefix":"https://ss3.4sqi.net/img/categories_v2/food/default_","suffix":".png"}}],"chains":[],"closed_bucket":"LikelyOpen","distance":4,"geocodes":{"main":{"latitude":54.96771,"longitude":-1.602093},"roof":{"latitude":54.96771,"longitude":-1.602093}},"link":"/v3/places/8fc741101597471eb6fa6e56","location":{"address":"Sage Gateshead St","admin_region":"England","country":"GB","formatted_address":"Sage Gateshead St, Gateshead, NE8 2JR","locality":"Gateshead","post_town":"Gateshead","postcode":"NE8 2JR"},"name":"Afternoon Tea at Sage Gateshead","related_places":{},"timezone":"Europe/London"},{"fsq_id":"707d1b1bbec049807a2efb23","categories":[{"id":10037,"name":"Concert Hall","short_name":"Concert Hall","plural_name":"Concert Halls","icon":{"prefix":"https://ss3.4sqi.net/img/categories_v2/arts_entertainment/musicvenue_","suffix":".png"}},{"id":10039,"name":"Music Venue","short_name":"Music Venue","plural_name":"Music Venues","icon":{"prefix":"https://ss3.4sqi.net/img/categories_v2/arts_entertainment/musicvenue_","suffix":".png"}},{"id":10051,"name":"Stadium","short_name":"Stadium","plural_name":"Stadiums","icon":{"prefix":"https://ss3.4sqi.net/img/categories_v2/arts_entertainment/stadium_","suffix":".png"}}],"chains":[],"closed_bucket":"Unsure","distance":6,"geocodes":{"main":{"latitude":54.967768,"longitude":-1.601956},"roof":{"latitude":54.967768,"longitude":-1.601956}},"link":"/v3/places/707d1b1bbec049807a2efb23","location":{"address":"St Marys Square","admin_region":"England","country":"GB","formatted_address":"St Marys Square, Gateshead, NE8 2JR","locality":"Gateshead","post_town":"Gateshead","postcode":"NE8 2JR"},"name":"North Music Trust","related_places":{},"timezone":"Europe/London"},{"fsq_id":"4d1e15e6d7b0b1f72196009f","categories":[{"id":16025,"name":"Memorial Site","short_name":"Memorial Site","plural_name":"Memorial Sites","icon":{"prefix":"https://ss3.4sqi.net/img/categories_v2/arts_entertainment/historicsite_","suffix":".png"}}],"chains":[],"closed_bucket":"LikelyOpen","distance":23,"geocodes":{"main":{"latitude":54.977724,"longitude":-1.613407},"roof":{"latitude":54.977724,"longitude":-1.613407}},"link":"/v3/places/4d1e15e6d7b0b1f72196009f","location":{"admin_region":"England","country":"GB","cross_street":"Percy St","formatted_address":"Percy St, Newcastle upon Tyne","locality":"Newcastle upon Tyne","post_town":"Newcastle upon Tyne"},"name":"South Africa War Memorial","related_places":{},"timezone":"Europe/London"},{"fsq_id":"4f6cc33be4b0e3b3bc504766","categories":[{"id":10004,"name":"Art Gallery","short_name":"Art Gallery","plural_name":"Art Galleries","icon":{"prefix":"https://ss3.4sqi.net/img/categories_v2/arts_entertainment/artgallery_","suffix":".png"}}],"chains":[],"closed_bucket":"LikelyOpen","distance":13,"geocodes":{"main":{"latitude":54.973507,"longitude":-1.610994},"roof":{"latitude":54.973507,"longitude":-1.610994}},"link":"/v3/places/4f6cc33be4b0e3b3bc504766","location":{"address":"47 Pilgrim St","admin_region":"England","country":"GB","cross_street":"","formatted_address":"47 Pilgrim St, Newcastle upon Tyne, NE1 6QE","locality":"Newcastle upon Tyne","post_town":"Newcastle Upon Tyne","postcode":"NE1 6QE","region":"Newcastle upon Tyne"},"name":"The Globe Gallery","related_places":{},"timezone":"Europe/London"},{"fsq_id":"830b980f8eb5479be2390b38","categories":[{"id":13382,"name":"Snack Place","short_name":"Snacks","plural_name":"Snack Places","icon":{"prefix":"https://ss3.4sqi.net/img/categories_v2/food/snacks_","suffix":".png"}}],"chains":[],"closed_bucket":"LikelyOpen","distance":14,"geocodes":{"main":{"latitude":54.973399,"longitude":-1.611064},"roof":{"latitude":54.973399,"longitude":-1.611064}},"link":"/v3/places/830b980f8eb5479be2390b38","location":{"address":"The Stack, 39 Pilgrim St","admin_region":"England","country":"GB","formatted_address":"The Stack, 39 Pilgrim St, Newcastle upon Tyne, NE1 6QE","locality":"Newcastle upon Tyne","post_town":"Newcastle Upon Tyne","postcode":"NE1 6QE"},"name":"The Dispensary","related_places":{}},{"fsq_id":"4b81cafdf964a52065be30e3","categories":[{"id":13145,"name":"Fast Food Restaurant","short_name":"Fast Food","plural_name":"Fast Food Restaurants","icon":{"prefix":"https://ss3.4sqi.net/img/categories_v2/food/fastfood_","suffix":".png"}}],"chains":[],"closed_bucket":"LikelyOpen","distance":8,"geocodes":{"main":{"latitude":54.977715,"longitude":-1.612325},"roof":{"latitude":54.977715,"longitude":-1.612325}},"link":"/v3/places/4b81cafdf964a52065be30e3","location":{"address":"10 St. Marys Pl","admin_region":"England","country":"GB","formatted_address":"10 St. Marys Pl, Newcastle upon Tyne, NE1 7PG","locality":"Newcastle upon Tyne","post_town":"Newcastle Upon Tyne","postcode":"NE1 7PG"},"name":"Get Stuffed","related_places":{},"timezone":"Europe/London"},{"fsq_id":"5bddca4eb5cb76002c12ffa8","categories":[{"id":13033,"name":"Bubble Tea Shop","short_name":"Bubble Tea","plural_name":"Bubble Tea Shops","icon":{"prefix":"https://ss3.4sqi.net/img/categories_v2/food/bubble_","suffix":".png"}}],"chains":[],"closed_bucket":"VeryLikelyOpen","distance":8,"geocodes":{"main":{"latitude":54.977723,"longitude":-1.612122},"roof":{"latitude":54.977723,"longitude":-1.612122}},"link":"/v3/places/5bddca4eb5cb76002c12ffa8","location":{"admin_region":"England","country":"GB","cross_street":"","formatted_address":"Newcastle upon Tyne, NE1 7PG","locality":"Newcastle upon Tyne","post_town":"Newcastle Upon Tyne","postcode":"NE1 7PG","region":"Newcastle upon Tyne"},"name":"Joyo Handmade 焯粤","related_places":{},"timezone":"Europe/London"},{"fsq_id":"4bb9e5a17421a593451fc340","categories":[{"id":13302,"name":"Mediterranean Restaurant","short_name":"Mediterranean","plural_name":"Mediterranean Restaurants","icon":{"prefix":"https://ss3.4sqi.net/img/categories_v2/food/mediterranean_","suffix":".png"}}],"chains":[],"closed_bucket":"Unsure","distance":9,"geocodes":{"drop_off":{"latitude":54.977881,"longitude":-1.61213},"main":{"latitude":54.977723,"longitude":-1.612122},"roof":{"latitude":54.977723,"longitude":-1.612122}},"link":"/v3/places/4bb9e5a17421a593451fc340","location":{"address":"St Mary's Pl","admin_region":"England","country":"GB","formatted_address":"St Mary's Pl, Newcastle Upon Tyne","locality":"Newcastle Upon Tyne","post_town":"Newcastle Upon Tyne"},"name":"Culture Cafe","related_places":{},"timezone":"Europe/London"},{"fsq_id":"4ce7ba06948f224b2bd6eb5d","categories":[{"id":16020,"name":"Historic and Protected Site","short_name":"Historic and Protected Site","plural_name":"Historic and Protected Sites","icon":{"prefix":"https://ss3.4sqi.net/img/categories_v2/arts_entertainment/historicsite_","suffix":".png"}}],"chains":[],"closed_bucket":"VeryLikelyOpen","distance":10,"geocodes":{"main":{"latitude":54.969355,"longitude":-1.610912},"roof":{"latitude":54.969355,"longitude":-1.610912}},"link":"/v3/places/4ce7ba06948f224b2bd6eb5d","location":{"admin_region":"England","country":"GB","cross_street":"","formatted_address":"Newcastle upon Tyne","locality":"Newcastle upon Tyne","post_town":"Newcastle upon Tyne","region":"Newcastle upon Tyne"},"name":"Black Gate","related_places":{"parent":{"fsq_id":"4ba7418cf964a5202d8839e3","categories":[{"id":16000,"name":"Landmarks and Outdoors","short_name":"Landmarks and Outdoors","plural_name":"Landmarks and Outdoors","icon":{"prefix":"https://ss3.4sqi.net/img/categories_v2/parks_outdoors/default_","suffix":".png"}}],"name":"Newcastle Castle"}},"timezone":"Europe/London"},{"fsq_id":"4ba7418cf964a5202d8839e3","categories":[{"id":16000,"name":"Landmarks and Outdoors","short_name":"Landmarks and Outdoors","plural_name":"Landmarks and Outdoors","icon":{"prefix":"https://ss3.4sqi.net/img/categories_v2/parks_outdoors/default_","suffix":".png"}}],"chains":[],"closed_bucket":"VeryLikelyOpen","distance":25,"geocodes":{"main":{"latitude":54.969305,"longitude":-1.610846},"roof":{"latitude":54.969305,"longitude":-1.610846}},"link":"/v3/places/4ba7418cf964a5202d8839e3","location":{"address":"The Black Gate Castle Garth Castle Garth","admin_region":"England","country":"GB","cross_street":"","formatted_address":"The Black Gate Castle Garth Castle Garth, Newcastle upon Tyne, NE1 1RQ","locality":"Newcastle upon Tyne","post_town":"Newcastle Upon Tyne","postcode":"NE1 1RQ","region":"Newcastle upon Tyne"},"name":"Newcastle Castle","related_places":{"children":[{"fsq_id":"4ce7ba06948f224b2bd6eb5d","categories":[{"id":16020,"name":"Historic and Protected Site","short_name":"Historic and Protected Site","plural_name":"Historic and Protected Sites","icon":{"prefix":"https://ss3.4sqi.net/img/categories_v2/arts_entertainment/historicsite_","suffix":".png"}}],"name":"Black Gate"},{"fsq_id":"5815ad2e38fa462c37244b28","categories":[{"id":19029,"name":"Tour Provider","short_name":"Tour Provider","plural_name":"Tour Providers","icon":{"prefix":"https://ss3.4sqi.net/img/categories_v2/arts_entertainment/default_","suffix":".png"}}],"name":"Castle Keep"}]},"timezone":"Europe/London"},{"fsq_id":"56a8c802498e9dc993c50028","categories":[{"id":13236,"name":"Italian Restaurant","short_name":"Italian","plural_name":"Italian Restaurants","icon":{"prefix":"https://ss3.4sqi.net/img/categories_v2/food/italian_","suffix":".png"}}],"chains":[],"closed_bucket":"LikelyOpen","distance":18,"geocodes":{"main":{"latitude":54.968355,"longitude":-1.608297},"roof":{"latitude":54.968355,"longitude":-1.608297}},"link":"/v3/places/56a8c802498e9dc993c50028","location":{"address":"57-60 Sandhill","admin_region":"England","country":"GB","cross_street":"","formatted_address":"57-60 Sandhill, Newcastle upon Tyne, NE1 3RG","locality":"Newcastle upon Tyne","post_town":"Newcastle Upon Tyne","postcode":"NE1 3RG"},"name":"Sambuca","related_places":{},"timezone":"Europe/London"},{"fsq_id":"0de243c202474c90dd83a446","categories":[{"id":13065,"name":"Restaurant","short_name":"Restaurant","plural_name":"Restaurants","icon":{"prefix":"https://ss3.4sqi.net/img/categories_v2/food/default_","suffix":".png"}}],"chains":[],"closed_bucket":"VeryLikelyOpen","distance":23,"geocodes":{"drop_off":{"latitude":54.968428,"longitude":-1.608123},"main":{"latitude":54.968359,"longitude":-1.608196},"roof":{"latitude":54.968359,"longitude":-1.608196}},"link":"/v3/places/0de243c202474c90dd83a446","location":{"address":"Watergate Buildings, 57-60 Sandhill","admin_region":"England","country":"GB","formatted_address":"Watergate Buildings, 57-60 Sandhill, Newcastle upon Tyne","locality":"Newcastle upon Tyne","post_town":"Newcastle upon Tyne"},"name":"Sambuca Quayside Newcastle","related_places":{},"timezone":"Europe/London"},{"fsq_id":"4ea34bf96c25b62f3dc5c7eb","categories":[{"id":13016,"name":"Lounge","short_name":"Lounge","plural_name":"Lounges","icon":{"prefix":"https://ss3.4sqi.net/img/categories_v2/nightlife/default_","suffix":".png"}},{"id":13065,"name":"Restaurant","short_name":"Restaurant","plural_name":"Restaurants","icon":{"prefix":"https://ss3.4sqi.net/img/categories_v2/food/default_","suffix":".png"}}],"chains":[],"closed_bucket":"LikelyOpen","distance":28,"geocodes":{"main":{"latitude":54.968247,"longitude":-1.608367},"roof":{"latitude":54.968247,"longitude":-1.608367}},"link":"/v3/places/4ea34bf96c25b62f3dc5c7eb","location":{"address":"57-60 Sandhill","admin_region":"England","country":"GB","cross_street":"","formatted_address":"57-60 Sandhill, Newcastle upon Tyne, NE1 3RG","locality":"Newcastle upon Tyne","post_town":"Newcastle Upon Tyne","postcode":"NE1 3RG","region":"Newcastle upon Tyne"},"name":"Victoria 22","related_places":{},"timezone":"Europe/London"}]